timestamp,DesRoll,Roll,DesPitch,Pitch,DesYaw,Yaw,ErrRP,ErrYaw,MagX,MagY,MagZ,abGyrX,abGyrY,abGyrZ,abAccX,abAccY,abAccZ,labels
64914024.0,0.335,0.34,0.255,0.195,3.8,3.255,0.0,0.0,233.5,44.0,44.0,1.973694,-1.243027,0.05329455,0.00469194,0.05004548,-9.889271,0
64964004.0,0.33,1.95,0.28,0.46,3.8,3.26,0.0,0.0,237.0,44.0,44.0,-0.8803564,2.190137,0.04735396,-0.0366405,0.00147205,-9.823107,0
64964004.0,0.33,1.95,0.28,0.46,3.8,3.26,0.0,0.0,237.0,44.0,44.0,-0.6348794,-2.293604,0.03786114,-0.02375886,0.0178666,-9.849349,0
65013984.0,0.32,0.35,0.31,0.21,3.8,3.26,0.0,0.0,234.0,43.5,43.5,1.873409,1.422734,0.03767753,0.00037058,0.04958807,-9.855397,0
65063964.0,0.31,-1.25,0.34,-0.04,3.8,3.26,0.0,0.0,231.0,43.0,43.0,-2.333842,-0.0625394,0.04306586,-0.00972328,-0.0140567,-9.80784,0
65063964.0,0.31,-1.25,0.34,-0.04,3.8,3.26,0.0,0.0,231.0,43.0,43.0,1.917812,-1.306669,0.05222921,-0.00675378,0.02887047,-9.827789,0
65113944.0,0.305,0.33,0.35,0.285,3.8,3.27,0.0,0.0,234.5,43.0,43.0,-0.7675576,2.235493,0.04815673,-0.00324093,-0.06023675,-9.846462,0
65163924.0,0.3,1.91,0.36,0.61,3.8,3.28,0.0,0.0,238.0,43.0,43.0,-0.7015301,-2.232958,0.0368451,-0.00951657,-0.04618989,-9.758943,0
65163924.0,0.3,1.91,0.36,0.61,3.8,3.28,0.0,0.0,238.0,43.0,43.0,1.952869,1.298641,0.03712631,-0.04140906,0.04317985,-9.785007,0
65213904.0,0.31,0.31,0.32,0.4,3.8,3.28,0.0,0.0,235.5,43.5,43.5,-2.261156,0.1647541,0.04860055,-0.03895448,-0.00852701,-9.807439,0
65263884.0,0.32,-1.29,0.28,0.19,3.8,3.28,0.0,0.0,233.0,44.0,44.0,1.721254,-1.601992,0.05133612,0.03775989,0.01491404,-9.826256,0
65263884.0,0.32,-1.29,0.28,0.19,3.8,3.28,0.0,0.0,233.0,44.0,44.0,-0.317611,2.304208,0.04114758,-0.00170571,0.01082784,-9.837304,0
65313864.0,0.325,0.33,0.265,0.28,3.8,3.285,0.0,0.0,235.5,43.5,43.5,-1.171629,-1.946248,0.03231657,0.0087911,0.00439685,-9.817055,0
65363844.0,0.33,1.95,0.25,0.37,3.8,3.29,0.0,0.0,238.0,43.0,43.0,2.147928,0.8480704,0.0383374,-0.00993191,0.02801704,-9.837029,0
65363844.0,0.33,1.95,0.25,0.37,3.8,3.29,0.0,0.0,238.0,43.0,43.0,-2.231647,0.7223487,0.04890337,-0.01448056,-0.03902271,-9.822423,0
65413824.0,0.32,0.335,0.26,0.27,3.8,3.29,0.0,0.0,234.5,43.0,43.0,1.218451,-1.938633,0.04810377,0.02503469,0.04703742,-9.832587,0
65463804.0,0.31,-1.28,0.27,0.17,3.8,3.29,0.0,0.0,231.0,43.0,43.0,0.1811269,2.270574,0.03571536,-0.01892535,-0.03788862,-9.8242,0
65463804.0,0.31,-1.28,0.27,0.17,3.8,3.29,0.0,0.0,231.0,43.0,43.0,-1.637486,-1.678601,0.03212061,0.03209598,-0.03086408,-9.866644,0
65513784.0,0.3,0.265,0.265,0.195,3.8,3.29,0.0,0.0,234.5,43.0,43.0,2.345396,0.2546853,0.04176817,0.00439281,0.00015154,-9.891125,0
65563764.0,0.29,1.81,0.26,0.22,3.8,3.29,0.0,0.0,238.0,43.0,43.0,-2.11938,1.030647,0.04832148,-0.03321988,0.03269261,-9.805751,0
65563764.0,0.29,1.81,0.26,0.22,3.8,3.29,0.0,0.0,238.0,43.0,43.0,1.131192,-2.085321,0.04581266,0.02239195,0.01519295,-9.852308,0
65613744.0,0.27,0.3,0.25,0.305,3.8,3.29,0.0,0.0,234.5,43.5,43.5,0.2371951,2.399831,0.03666134,-0.03272541,-0.03379384,-9.80652,0
65663724.0,0.25,-1.21,0.24,0.39,3.8,3.29,0.0,0.0,231.0,44.0,44.0,-1.551379,-1.754225,0.0331557,-0.03310766,-0.04340249,-9.829708,0
65663724.0,0.25,-1.21,0.24,0.39,3.8,3.29,0.0,0.0,231.0,44.0,44.0,2.301673,0.6470873,0.03611852,0.02970394,-0.04297378,-9.826983,0
65713704.0,0.225,0.325,0.24,0.145,3.8,3.285,0.0,0.0,234.0,42.5,42.5,-2.205645,0.7770175,0.04919476,-0.02204569,-0.01329934,-9.817892,0
65763684.0,0.2,1.86,0.24,-0.1,3.8,3.28,0.0,0.0,237.0,41.0,41.0,1.452266,-1.912186,0.0500336,0.04088059,0.02903524,-9.773072,0
65763684.0,0.2,1.86,0.24,-0.1,3.8,3.28,0.0,0.0,237.0,41.0,41.0,-0.1462067,2.224602,0.03969146,-0.01426833,0.00241474,-9.641975,0
65813664.0,0.175,0.245,0.22,0.415,3.8,3.285,0.0,0.0,235.0,43.0,43.0,-1.283264,-2.245201,0.03523666,0.02583616,0.0079181,-9.578398,0
65863644.0,0.15,-1.37,0.2,0.93,3.8,3.29,0.0,0.0,233.0,45.0,45.0,1.949912,0.6002079,0.03911268,-0.0138734,-0.02152215,-9.39325,0
65863644.0,0.15,-1.37,0.2,0.93,3.8,3.29,0.0,0.0,233.0,45.0,45.0,-2.41331,0.01368057,0.04654738,0.00181129,-0.01562639,-9.418054,0
65913624.0,0.175,-0.015,0.19,0.27,3.8,3.28,0.0,0.0,235.0,45.0,45.0,1.184558,-2.123068,0.05420252,0.01979781,-0.01139056,-9.407666,0
65963604.0,0.2,1.34,0.18,-0.39,3.8,3.27,0.0,0.0,237.0,45.0,45.0,-0.5583198,1.773529,0.04357308,-0.05651202,0.03279126,-9.582965,0
65963604.0,0.2,1.34,0.18,-0.39,3.8,3.27,0.0,0.0,237.0,45.0,45.0,-1.565326,-2.454376,0.03718149,0.04056428,-0.00865896,-9.545096,0
66013584.0,0.24,-0.14,0.18,0.07,3.8,3.265,0.0,0.0,233.5,47.0,47.0,1.790904,0.3211221,0.04348706,-0.1122449,0.04922457,-9.613179,0
66063564.0,0.28,-1.62,0.18,0.53,3.8,3.26,0.0,0.0,230.0,49.0,49.0,-2.595208,0.1316791,0.05062044,-0.05679304,0.00378691,-9.820316,0
66063564.0,0.28,-1.62,0.18,0.53,3.8,3.26,0.0,0.0,230.0,49.0,49.0,1.019458,-2.295206,0.0546629,-0.04098178,0.05856878,-9.668182,0
66113544.0,0.305,0.075,0.19,0.195,3.8,3.245,0.0,0.0,233.5,46.5,46.5,-0.4490767,1.886993,0.04651312,-0.05940863,0.05981002,-9.864962,0
66163524.0,0.33,1.77,0.2,-0.14,3.8,3.23,0.0,0.0,237.0,44.0,44.0,-1.741109,-2.364099,0.03684368,-0.111432,0.0916943,-9.921305,0
66163524.0,0.33,1.77,0.2,-0.14,3.8,3.23,0.0,0.0,237.0,44.0,44.0,1.942229,0.3097201,0.02843329,-0.1543649,0.08543938,-9.89063,0
66213504.0,0.31,0.155,0.19,0.14,3.8,3.225,0.0,0.0,234.0,44.5,44.5,-2.475535,0.5440319,0.01511224,-0.1915152,0.05368763,-10.16934,0
66263484.0,0.29,-1.46,0.18,0.42,3.8,3.22,0.0,0.0,231.0,45.0,45.0,1.084395,-2.255383,-0.02670117,-0.1792588,0.08504962,-9.985181,0
66263484.0,0.29,-1.46,0.18,0.42,3.8,3.22,0.0,0.0,231.0,45.0,45.0,0.09354047,2.349759,-0.0988417,-0.2182533,0.1347611,-10.25574,0
66313464.0,0.28,0.155,0.18,0.2,3.8,3.21,0.0,0.0,234.0,44.5,44.5,-1.537251,-2.019481,-0.181136,-0.2078344,0.1429341,-10.16926,0
66363444.0,0.27,1.77,0.18,-0.02,3.8,3.2,0.0,0.0,237.0,44.0,44.0,2.229151,0.592662,-0.2705346,-0.2499589,0.1650575,-10.12183,0
66363444.0,0.27,1.77,0.18,-0.02,3.8,3.2,0.0,0.0,237.0,44.0,44.0,-2.2365,0.8238515,-0.3636729,-0.3365075,0.1397353,-10.32112,0
66413424.0,0.265,0.17,0.175,0.205,3.8,3.2,0.0,0.0,234.0,44.5,44.5,1.620993,-2.164185,-0.4687611,-0.3016815,0.169179,-10.09704,0
66463404.0,0.26,-1.43,0.17,0.43,3.8,3.2,0.0,0.0,231.0,45.0,45.0,-0.3435891,2.519353,-0.5828597,-0.3561149,0.1464414,-10.34623,0
66463404.0,0.26,-1.43,0.17,0.43,3.8,3.2,0.0,0.0,231.0,45.0,45.0,-0.929584,-2.3789,-0.693206,-0.3888127,0.1545197,-10.15807,0
66513384.0,0.27,0.21,0.175,0.155,3.8,3.195,0.0,0.0,234.0,44.0,44.0,2.105617,1.150234,-0.7938519,-0.4074937,0.1993285,-10.18986,0
66563364.0,0.28,1.85,0.18,-0.12,3.8,3.19,0.0,0.0,237.0,43.0,43.0,-2.4057,0.1396887,-0.8804551,-0.4657975,0.156311,-10.36585,0
66563364.0,0.28,1.85,0.18,-0.12,3.8,3.19,0.0,0.0,237.0,43.0,43.0,1.835395,-1.715526,-0.9619503,-0.4734251,0.1972851,-10.12334,0
66613344.0,0.27,0.25,0.18,0.165,3.8,3.195,0.0,0.0,234.0,43.5,43.5,-0.681163,2.488079,-1.043186,-0.5951283,0.1347809,-10.37021,0
66663324.0,0.26,-1.35,0.18,0.45,3.8,3.2,0.0,0.0,231.0,44.0,44.0,-0.7850121,-2.431664,-1.106688,-0.5962693,0.1363187,-10.14041,0
66663324.0,0.26,-1.35,0.18,0.45,3.8,3.2,0.0,0.0,231.0,44.0,44.0,2.045975,1.229163,-1.142762,-0.6439378,0.1406422,-10.22085,0
66713304.0,0.245,0.175,0.19,0.11,3.8,3.205,0.0,0.0,234.0,43.5,43.5,-2.485188,0.04631956,-1.146797,-0.72134,0.1068961,-10.33931,0
66763284.0,0.23,1.7,0.2,-0.23,3.8,3.21,0.0,0.0,237.0,43.0,43.0,1.889615,-1.66205,-1.142303,-0.7035442,0.07329083,-10.09091,0
66763284.0,0.23,1.7,0.2,-0.23,3.8,3.21,0.0,0.0,237.0,43.0,43.0,-0.5745472,2.380489,-1.132964,-0.7943497,0.02485267,-10.28234,0
66813680.5,0.215,0.14,0.205,0.18,3.8,3.22,0.0,0.0,234.0,44.0,44.0,-1.031007,-2.304207,-1.10846,-0.7654129,0.03177418,-10.16278,0
66864077.0,0.2,-1.42,0.21,0.59,3.8,3.23,0.0,0.0,231.0,45.0,45.0,2.198887,1.217207,-1.061119,-0.8995571,0.0768882,-10.21197,0
66864077.0,0.2,-1.42,0.21,0.59,3.8,3.23,0.0,0.0,231.0,45.0,45.0,-2.502577,0.07187162,-0.9890653,-0.9184889,-0.02402101,-10.30058,0
66914057.0,0.195,0.17,0.2,0.26,3.8,3.225,0.0,0.0,234.0,43.5,43.5,1.865167,-1.677549,-0.9053989,-0.9721687,-0.02283954,-10.12434,0
66964037.0,0.19,1.76,0.19,-0.07,3.8,3.22,0.0,0.0,237.0,42.0,42.0,-0.268925,2.172487,-0.8228527,-1.008204,-0.1217941,-10.25656,0
66964037.0,0.19,1.76,0.19,-0.07,3.8,3.22,0.0,0.0,237.0,42.0,42.0,-1.318791,-2.219309,-0.7338292,-1.010763,-0.1720023,-10.15566,0
67014017.0,0.19,0.135,0.175,0.11,3.8,3.22,0.0,0.0,234.0,44.0,44.0,2.429839,0.8339842,-0.6299727,-1.040723,-0.1340781,-10.12339,0
67063997.0,0.19,-1.49,0.16,0.29,3.8,3.22,0.0,0.0,231.0,46.0,46.0,-2.475682,0.4259517,-0.5149679,-1.100735,-0.2071092,-10.31851,0
67063997.0,0.19,-1.49,0.16,0.29,3.8,3.22,0.0,0.0,231.0,46.0,46.0,1.412903,-1.832531,-0.4067777,-1.113882,-0.2163313,-10.06847,0
67113977.0,0.19,0.14,0.17,0.06,3.8,3.215,0.0,0.0,233.5,44.5,44.5,0.08812717,2.49969,-0.3111686,-1.191939,-0.2645321,-10.1427,0
67163957.0,0.19,1.77,0.18,-0.17,3.8,3.21,0.0,0.0,236.0,43.0,43.0,-1.797069,-1.63064,-0.2175451,-1.199429,-0.3110257,-10.05003,0
67163957.0,0.19,1.77,0.18,-0.17,3.8,3.21,0.0,0.0,236.0,43.0,43.0,2.417694,0.870164,-0.1138721,-1.232516,-0.2556904,-10.04133,0
67213937.0,0.18,0.17,0.2,0.07,3.8,3.215,0.0,0.0,233.0,44.0,44.0,-2.365487,1.219442,-0.01258589,-1.247578,-0.3649279,-10.0782,0
67263917.0,0.17,-1.43,0.22,0.31,3.8,3.22,0.0,0.0,230.0,45.0,45.0,0.9412738,-1.749099,0.06826019,-1.32293,-0.273092,-9.972191,0
67263917.0,0.17,-1.43,0.22,0.31,3.8,3.22,0.0,0.0,230.0,45.0,45.0,0.2376208,2.805108,0.1377602,-1.42035,-0.3713938,-9.969099,0
67313897.0,0.16,0.17,0.245,0.065,3.8,3.225,0.0,0.0,233.0,43.5,43.5,-1.871739,-1.374504,0.2034831,-1.373468,-0.3313071,-9.813473,0
67363877.0,0.15,1.77,0.27,-0.18,3.8,3.23,0.0,0.0,236.0,42.0,42.0,2.317771,1.184135,0.276072,-1.465089,-0.2853531,-9.901364,0
67363877.0,0.15,1.77,0.27,-0.18,3.8,3.23,0.0,0.0,236.0,42.0,42.0,-2.457653,1.212559,0.3454379,-1.466574,-0.350157,-9.736887,0
67413857.0,0.16,0.135,0.265,0.17,3.8,3.235,0.0,0.0,233.5,44.0,44.0,1.372488,-1.370686,0.403484,-1.513309,-0.3209801,-9.768364,0
67463837.0,0.17,-1.5,0.26,0.52,3.8,3.24,0.0,0.0,231.0,46.0,46.0,-0.2394219,2.871532,0.4404837,-1.587655,-0.2765344,-9.852372,0
67463837.0,0.17,-1.5,0.26,0.52,3.8,3.24,0.0,0.0,231.0,46.0,46.0,-1.415706,-1.50823,0.4766084,-1.495014,-0.2022909,-9.671445,0
67513817.0,0.185,0.095,0.26,0.18,3.8,3.25,0.0,0.0,234.0,44.5,44.5,2.139533,1.516467,0.5142416,-1.55362,-0.214378,-9.791185,0
67563797.0,0.2,1.69,0.26,-0.16,3.8,3.26,0.0,0.0,237.0,43.0,43.0,-2.503576,0.8910079,0.5499795,-1.587803,-0.2392184,-9.666206,0
67563797.0,0.2,1.69,0.26,-0.16,3.8,3.26,0.0,0.0,237.0,43.0,43.0,1.572852,-1.0863,0.5776908,-1.554483,-0.1776305,-9.751595,0
67613777.0,0.185,0.125,0.245,0.335,3.8,3.275,0.0,0.0,234.5,44.5,44.5,-0.5235097,2.862142,0.5863719,-1.628723,-0.1764048,-9.738815,0
67663757.0,0.17,-1.44,0.23,0.83,3.8,3.29,0.0,0.0,232.0,46.0,46.0,-1.1004,-1.522364,0.5881379,-1.536885,-0.112823,-9.707083,0
67663757.0,0.17,-1.44,0.23,0.83,3.8,3.29,0.0,0.0,232.0,46.0,46.0,2.100997,1.523251,0.5917521,-1.596684,-0.06530218,-9.840922,0
67713737.0,0.18,0.0,0.22,0.085,3.8,3.295,0.0,0.0,234.5,44.5,44.5,-2.29264,0.8211851,0.5971195,-1.580986,-0.1315806,-9.78898,0
67763717.0,0.19,1.44,0.21,-0.66,3.8,3.3,0.0,0.0,237.0,43.0,43.0,1.593446,-1.38827,0.5928328,-1.508375,-0.1216652,-9.809439,0
67763717.0,0.19,1.44,0.21,-0.66,3.8,3.3,0.0,0.0,237.0,43.0,43.0,-0.293108,2.575793,0.5644437,-1.545617,-0.02054825,-9.891361,0
67813697.0,0.185,0.195,0.21,0.17,3.8,3.31,0.0,0.0,234.0,44.5,44.5,-1.12337,-1.90127,0.533192,-1.404524,-0.05289629,-9.823371,0
67863677.0,0.18,-1.05,0.21,1.0,3.8,3.32,0.0,0.0,231.0,46.0,46.0,2.12967,1.075106,0.5058827,-1.475429,0.02245742,-9.908715,0
67863677.0,0.18,-1.05,0.21,1.0,3.8,3.32,0.0,0.0,231.0,46.0,46.0,-2.249161,0.6902071,0.4777809,-1.426794,-0.0086716,-9.780478,0
67913657.0,0.165,0.23,0.2,0.095,3.8,3.315,0.0,0.0,233.5,43.0,43.0,1.502637,-1.747394,0.4389816,-1.356496,0.0278162,-9.936818,0
67963637.0,0.15,1.51,0.19,-0.81,3.8,3.31,0.0,0.0,236.0,40.0,40.0,-0.2039244,2.463836,0.3845176,-1.335802,0.06491213,-9.922382,0
67963637.0,0.15,1.51,0.19,-0.81,3.8,3.31,0.0,0.0,236.0,40.0,40.0,-1.258204,-1.843463,0.3285874,-1.331705,0.05851576,-9.849184,0
68013617.0,0.115,0.155,0.16,0.375,3.8,3.31,0.0,0.0,235.5,43.0,43.0,2.183107,0.65492,0.2803467,-1.24327,0.09951662,-9.979765,0
68063597.0,0.08,-1.2,0.13,1.56,3.8,3.31,0.0,0.0,235.0,46.0,46.0,-2.267891,1.014916,0.2342014,-1.233217,0.07884586,-9.864614,0
68063597.0,0.08,-1.2,0.13,1.56,3.8,3.31,0.0,0.0,235.0,46.0,46.0,1.393287,-1.870923,0.1843961,-1.240213,0.09910065,-9.965695,0
68113577.0,0.06,0.175,0.065,0.45,3.8,3.3,0.0,0.0,237.0,43.5,43.5,-0.1434578,2.526819,0.1266384,-1.195974,0.1016178,-9.930355,0
68163557.0,0.04,1.55,0.0,-0.66,3.8,3.29,0.0,0.0,239.0,41.0,41.0,-1.181477,-1.962361,0.06989153,-1.143919,0.06916727,-9.894152,0
68163557.0,0.04,1.55,0.0,-0.66,3.8,3.29,0.0,0.0,239.0,41.0,41.0,2.172228,1.028801,0.02557227,-1.130466,0.138454,-9.952901,0
68213537.0,0.03,0.09,-0.02,0.1,3.8,3.28,0.0,0.0,235.0,43.5,43.5,-2.277478,0.5458394,-0.00810288,-1.093502,0.09445911,-9.877112,0
68263517.0,0.02,-1.37,-0.04,0.86,3.8,3.27,0.0,0.0,231.0,46.0,46.0,1.687804,-1.742866,-0.04818699,-1.030801,0.1038291,-9.944427,0
68263517.0,0.02,-1.37,-0.04,0.86,3.8,3.27,0.0,0.0,231.0,46.0,46.0,-0.4761801,2.473876,-0.0914103,-1.075796,0.1198731,-9.901781,0
68313497.0,0.035,0.135,-0.025,0.135,3.8,3.26,0.0,0.0,233.5,44.0,44.0,-0.9619393,-2.048807,-0.1344988,-0.9734634,0.06544888,-9.909386,0
68363477.0,0.05,1.64,-0.01,-0.59,3.8,3.25,0.0,0.0,236.0,42.0,42.0,2.076102,1.181675,-0.1639377,-0.9700611,0.1060626,-9.997546,0
68363477.0,0.05,1.64,-0.01,-0.59,3.8,3.25,0.0,0.0,236.0,42.0,42.0,-2.270231,0.4332373,-0.178629,-1.002281,0.06255297,-9.898761,0
68413457.0,0.055,0.135,-0.005,0.08,3.8,3.245,0.0,0.0,233.5,44.0,44.0,1.685513,-1.680842,-0.1959706,-0.9414223,0.05722142,-9.954992,0
68463437.0,0.06,-1.37,0.0,0.75,3.8,3.24,0.0,0.0,231.0,46.0,46.0,-0.3277013,2.415973,-0.2196303,-0.9255456,0.09130132,-9.913415,0
68463437.0,0.06,-1.37,0.0,0.75,3.8,3.24,0.0,0.0,231.0,46.0,46.0,-1.092125,-2.007832,-0.2386931,-0.8799309,0.0110558,-9.901612,0
68513417.0,0.04,0.115,0.0,0.05,3.8,3.23,0.0,0.0,233.5,44.0,44.0,2.155644,1.042997,-0.2409383,-0.8883415,0.05017807,-10.04218,0
68563397.0,0.02,1.6,0.0,-0.65,3.8,3.22,0.0,0.0,236.0,42.0,42.0,-2.307312,0.51145,-0.2329392,-0.823367,0.00919473,-9.911547,0
68563397.0,0.02,1.6,0.0,-0.65,3.8,3.22,0.0,0.0,236.0,42.0,42.0,1.548919,-1.751096,-0.2268104,-0.8117688,0.02317929,-9.974858,0
68613377.0,0.005,0.06,0.0,0.05,3.8,3.215,0.0,0.0,233.5,44.5,44.5,-0.1837837,2.368984,-0.2259051,-0.8488446,0.03212159,-9.888672,0
68663357.0,-0.01,-1.48,0.0,0.75,3.8,3.21,0.0,0.0,231.0,47.0,47.0,-1.246703,-1.934513,-0.226703,-0.7214913,-0.02695279,-9.926605,0
68663357.0,-0.01,-1.48,0.0,0.75,3.8,3.21,0.0,0.0,231.0,47.0,47.0,2.216257,0.8157609,-0.2066888,-0.7672742,0.03275506,-9.940933,0
68713337.0,0.0,-0.005,0.01,0.03,3.8,3.21,0.0,0.0,233.5,45.0,45.0,-2.203481,0.8012952,-0.1772678,-0.7362663,-0.01179489,-9.878331,0
68763317.0,0.01,1.47,0.02,-0.69,3.8,3.21,0.0,0.0,236.0,43.0,43.0,1.166516,-1.921616,-0.1571832,-0.6547984,0.01501836,-9.946662,0
68763317.0,0.01,1.47,0.02,-0.69,3.8,3.21,0.0,0.0,236.0,43.0,43.0,0.2860102,2.307549,-0.1484402,-0.7049362,-0.0122462,-9.903591,0
68813297.0,0.01,0.08,0.01,0.145,3.8,3.215,0.0,0.0,234.0,45.0,45.0,-1.716842,-1.602384,-0.1283621,-0.6226175,0.02205502,-9.877044,0
68863277.0,0.01,-1.31,0.0,0.98,3.8,3.22,0.0,0.0,232.0,47.0,47.0,2.377951,0.2564156,-0.09533529,-0.6842748,-0.01270834,-9.973544,0
68863277.0,0.01,-1.31,0.0,0.98,3.8,3.22,0.0,0.0,232.0,47.0,47.0,-1.883281,1.224594,-0.06211269,-0.6189141,-0.019002,-9.876904,0
68913673.5,0.01,0.055,0.01,0.115,3.8,3.23,0.0,0.0,234.0,45.0,45.0,0.7745427,-2.173934,-0.04220141,-0.5830366,0.01543959,-9.873789,0
68964070.0,0.01,1.42,0.02,-0.75,3.8,3.24,0.0,0.0,236.0,43.0,43.0,0.9063966,2.14643,-0.0259725,-0.5498842,0.02324196,-9.90457,0
68964070.0,0.01,1.42,0.02,-0.75,3.8,3.24,0.0,0.0,236.0,43.0,43.0,-2.00572,-1.183958,-0.00403377,-0.5565807,-0.02318641,-9.865662,0
69014050.0,0.0,0.025,0.01,0.09,3.8,3.26,0.0,0.0,234.0,45.0,45.0,2.454756,-0.09622245,0.02827831,-0.5564004,-0.019142,-9.918789,0
69064030.0,-0.01,-1.37,0.0,0.93,3.8,3.28,0.0,0.0,232.0,47.0,47.0,-1.869388,1.44587,0.05309999,-0.5123561,-0.02370663,-9.852612,0
69064030.0,-0.01,-1.37,0.0,0.93,3.8,3.28,0.0,0.0,232.0,47.0,47.0,0.6904095,-2.257088,0.07030143,-0.4557573,-0.01674661,-9.918129,0
69114010.0,-0.005,0.055,-0.02,0.12,3.8,3.295,0.0,0.0,234.0,44.5,44.5,0.6750312,2.258863,0.07742919,-0.474295,-0.04764033,-9.881333,0
69163990.0,0.0,1.48,-0.04,-0.69,3.8,3.31,0.0,0.0,236.0,42.0,42.0,-1.872845,-1.485502,0.09253821,-0.4285357,-0.00294211,-9.878228,0
69163990.0,0.0,1.48,-0.04,-0.69,3.8,3.31,0.0,0.0,236.0,42.0,42.0,2.401462,0.2079444,0.1178977,-0.4324471,0.06045946,-9.907986,0
69213970.0,0.01,0.055,-0.045,0.0,3.8,3.325,0.0,0.0,233.0,44.5,44.5,-2.09113,1.151258,0.1387685,-0.4297784,-0.04193033,-9.841307,0
69263950.0,0.02,-1.37,-0.05,0.69,3.8,3.34,0.0,0.0,230.0,47.0,47.0,1.014565,-2.185767,0.1455909,-0.414317,-0.03515674,-9.848413,0
69263950.0,0.02,-1.37,-0.05,0.69,3.8,3.34,0.0,0.0,230.0,47.0,47.0,0.397041,2.300082,0.1457182,-0.4281568,0.0102552,-9.896033,0
69313930.0,0.02,0.035,-0.045,-0.11,3.8,3.35,0.0,0.0,232.5,44.5,44.5,-1.633587,-1.747056,0.1460243,-0.3239292,-0.04147287,-9.87939,0
69363910.0,0.02,1.44,-0.04,-0.91,3.8,3.36,0.0,0.0,235.0,42.0,42.0,2.316042,0.421252,0.1566067,-0.3580762,0.02775655,-9.900259,0
69363910.0,0.02,1.44,-0.04,-0.91,3.8,3.36,0.0,0.0,235.0,42.0,42.0,-2.10457,0.9861814,0.1680236,-0.4047551,0.00643375,-9.817362,0
69413890.0,0.02,0.06,-0.025,-0.12,3.8,3.365,0.0,0.0,232.0,44.0,44.0,1.091459,-2.11464,0.1666395,-0.3519177,0.01835987,-9.806658,0
69463870.0,0.02,-1.32,-0.01,0.67,3.8,3.37,0.0,0.0,229.0,46.0,46.0,0.380093,2.297929,0.1548593,-0.3537205,-0.01563181,-9.838204,0
69463870.0,0.02,-1.32,-0.01,0.67,3.8,3.37,0.0,0.0,229.0,46.0,46.0,-1.65955,-1.627886,0.1456849,-0.2914425,-0.01360319,-9.840168,0
69513850.0,0.03,0.0,0.025,-0.12,3.8,3.375,0.0,0.0,232.0,44.0,44.0,2.328533,0.2966522,0.1501294,-0.3191814,0.00772197,-9.884423,0
69563830.0,0.04,1.32,0.06,-0.91,3.8,3.38,0.0,0.0,235.0,42.0,42.0,-2.043364,1.123556,0.1504482,-0.26041,-0.03061908,-9.808381,0
69563830.0,0.04,1.32,0.06,-0.91,3.8,3.38,0.0,0.0,235.0,42.0,42.0,0.9299664,-2.216402,0.1398267,-0.2802538,0.01412103,-9.831452,0
69613810.0,0.055,0.015,0.07,0.01,3.8,3.375,0.0,0.0,233.0,44.5,44.5,0.4903535,2.275889,0.123858,-0.2789121,-0.00447136,-9.808072,0
69663790.0,0.07,-1.29,0.08,0.93,3.8,3.37,0.0,0.0,231.0,47.0,47.0,-1.735631,-1.533181,0.1080246,-0.256173,-0.00651714,-9.823517,0
69663790.0,0.07,-1.29,0.08,0.93,3.8,3.37,0.0,0.0,231.0,47.0,47.0,2.333012,0.1666175,0.1076654,-0.2169885,-0.01378418,-9.910605,0
69713770.0,0.085,0.015,0.07,0.045,3.8,3.365,0.0,0.0,233.5,44.0,44.0,-1.890128,1.324571,0.1032961,-0.2503752,-0.01793438,-9.829787,0
69763750.0,0.1,1.32,0.06,-0.84,3.8,3.36,0.0,0.0,236.0,41.0,41.0,0.6855416,-2.264596,0.08471152,-0.2281311,-0.0231848,-9.832798,0
69763750.0,0.1,1.32,0.06,-0.84,3.8,3.36,0.0,0.0,236.0,41.0,41.0,0.8004394,2.241398,0.06450388,-0.244887,0.03329264,-9.827783,0
69813730.0,0.11,0.12,0.035,0.265,3.8,3.355,0.0,0.0,234.5,43.5,43.5,-1.873825,-1.430592,0.05047655,-0.2103495,-0.01866283,-9.814018,0
69863710.0,0.12,-1.08,0.01,1.37,3.8,3.35,0.0,0.0,233.0,46.0,46.0,2.387529,0.04635566,0.04556087,-0.1645115,0.00362049,-9.823825,0
69863710.0,0.12,-1.08,0.01,1.37,3.8,3.35,0.0,0.0,233.0,46.0,46.0,-1.952774,1.224347,0.04313086,-0.2030218,0.00368082,-9.896363,0
69913690.0,0.135,-0.09,0.015,0.03,3.8,3.34,0.0,0.0,234.0,44.0,44.0,1.016357,-2.35933,0.02898409,-0.1864256,0.01470296,-9.856013,0
69963670.0,0.15,0.9,0.02,-1.31,3.8,3.33,0.0,0.0,235.0,42.0,42.0,0.4861475,2.087863,0.00908872,-0.1790964,-0.02518417,-9.825275,0
69963670.0,0.15,0.9,0.02,-1.31,3.8,3.33,0.0,0.0,235.0,42.0,42.0,-1.662005,-2.070677,-0.0014771,-0.1805735,0.00202501,-9.800023,0
70013650.0,0.165,0.15,0.05,0.075,3.8,3.32,0.0,0.0,233.5,44.5,44.5,2.332943,-0.097517,-0.00455964,-0.1662194,0.02825112,-9.811451,0
70063630.0,0.18,-0.6,0.08,1.46,3.8,3.31,0.0,0.0,232.0,47.0,47.0,-2.141769,0.5047229,-0.00674579,-0.1431301,-0.00989456,-9.801739,0
70063630.0,0.18,-0.6,0.08,1.46,3.8,3.31,0.0,0.0,232.0,47.0,47.0,0.9978864,-2.671478,-0.0157708,-0.1472518,-0.01731286,-9.829375,0
70113610.0,0.18,0.38,0.095,0.07,3.8,3.28,0.0,0.0,233.5,42.5,42.5,0.268102,1.720421,-0.03448971,-0.2062093,0.0123043,-9.840263,0
70163590.0,0.18,1.36,0.11,-1.32,3.8,3.25,0.0,0.0,235.0,38.0,38.0,-1.756035,-2.251737,-0.04617434,-0.1550159,-0.01669814,-9.827791,0
70163590.0,0.18,1.36,0.11,-1.32,3.8,3.25,0.0,0.0,235.0,38.0,38.0,2.276015,-0.3191887,-0.04505588,-0.1883698,-0.02666998,-9.827174,0
70213570.0,0.14,0.26,0.13,-0.025,3.8,3.235,0.0,0.0,233.5,41.5,41.5,-2.075212,0.568051,-0.04076758,-0.1800946,-0.00737921,-9.990463,0
70263550.0,0.1,-0.84,0.15,1.27,3.8,3.22,0.0,0.0,232.0,45.0,45.0,0.939931,-2.751226,-0.04931188,-0.1979148,0.01470209,-9.903162,0
70263550.0,0.1,-0.84,0.15,1.27,3.8,3.22,0.0,0.0,232.0,45.0,45.0,0.5075412,1.74386,-0.06111579,-0.1819844,0.00470516,-9.97146,0
70313530.0,0.095,0.22,0.16,0.07,3.8,3.195,0.0,0.0,233.5,42.5,42.5,-1.856218,-2.105095,-0.06518602,-0.2338614,-0.01565533,-10.00895,0
70363510.0,0.09,1.28,0.17,-1.13,3.8,3.17,0.0,0.0,235.0,40.0,40.0,2.372448,-0.4287843,-0.05954337,-0.2350774,0.0177006,-9.908671,0
70363510.0,0.09,1.28,0.17,-1.13,3.8,3.17,0.0,0.0,235.0,40.0,40.0,-1.975178,0.7624699,-0.04764616,-0.2885044,-0.00568077,-10.20158,0
70413490.0,0.085,0.16,0.17,0.11,3.8,3.16,0.0,0.0,233.5,43.0,43.0,0.6949726,-2.786521,-0.05142454,-0.2718164,-0.00579648,-9.981786,0
70463470.0,0.08,-0.96,0.17,1.35,3.8,3.15,0.0,0.0,232.0,46.0,46.0,0.8621404,1.844385,-0.05881811,-0.361432,-0.01712172,-10.11048,0
70463470.0,0.08,-0.96,0.17,1.35,3.8,3.15,0.0,0.0,232.0,46.0,46.0,-2.141134,-1.418503,-0.05799786,-0.3242759,-0.03944265,-10.27074,0
70513450.0,0.08,0.195,0.14,0.22,3.8,3.14,0.0,0.0,234.5,43.0,43.0,2.375521,-0.5121107,-0.03968986,-0.4357267,0.03740045,-10.0531,0
70563430.0,0.08,1.35,0.11,-0.91,3.8,3.13,0.0,0.0,237.0,40.0,40.0,-1.615509,1.681152,-0.02774075,-0.4163644,-0.04362224,-10.33806,0
70563430.0,0.08,1.35,0.11,-0.91,3.8,3.13,0.0,0.0,237.0,40.0,40.0,0.1400782,-2.51193,-0.02840447,-0.4919452,-0.01163956,-10.07227,0
70613410.0,0.055,0.17,0.085,0.155,3.8,3.13,0.0,0.0,234.5,43.0,43.0,1.39527,1.876974,-0.03259347,-0.522018,-0.04397937,-10.13141,0
70663390.0,0.03,-1.01,0.06,1.22,3.8,3.13,0.0,0.0,232.0,46.0,46.0,-2.34485,-0.7705947,-0.01938369,-0.5204546,-0.00405462,-10.28423,0
70663390.0,0.03,-1.01,0.06,1.22,3.8,3.13,0.0,0.0,232.0,46.0,46.0,2.256195,-1.009571,-0.00117626,-0.5992973,-0.00824731,-10.07952,0
70713370.0,0.04,0.05,0.065,0.035,3.8,3.135,0.0,0.0,233.5,44.0,44.0,-1.081129,2.05563,0.00849057,-0.6341859,0.02080404,-10.3095,0
70763350.0,0.05,1.11,0.07,-1.15,3.8,3.14,0.0,0.0,235.0,42.0,42.0,-0.2300504,-2.61805,0.00829337,-0.6542877,-0.01442202,-10.04155,0
70763350.0,0.05,1.11,0.07,-1.15,3.8,3.14,0.0,0.0,235.0,42.0,42.0,1.701769,1.785118,0.01389349,-0.7217854,-0.019991,-10.14305,0
70813330.0,0.065,0.02,0.075,0.035,3.8,3.15,0.0,0.0,233.0,45.0,45.0,-2.440324,-0.7094651,0.02556587,-0.7468252,-0.07248528,-10.28305,0
70863310.0,0.08,-1.07,0.08,1.22,3.8,3.16,0.0,0.0,231.0,48.0,48.0,2.350681,-0.8449979,0.04704792,-0.7911448,-0.03230649,-10.06511,0
70863310.0,0.08,-1.07,0.08,1.22,3.8,3.16,0.0,0.0,231.0,48.0,48.0,-1.475915,1.968488,0.05354082,-0.9013841,-0.0312089,-10.28091,0
70913290.0,0.09,-0.05,0.09,0.01,3.8,3.175,0.0,0.0,233.0,44.5,44.5,0.0866639,-2.601732,0.05217116,-0.8467724,0.02725423,-10.05416,0
70963270.0,0.1,0.97,0.1,-1.2,3.8,3.19,0.0,0.0,235.0,41.0,41.0,1.359247,2.030217,0.0506388,-0.9479406,-0.02818923,-10.11535,0
70963270.0,0.1,0.97,0.1,-1.2,3.8,3.19,0.0,0.0,235.0,41.0,41.0,-2.407435,-1.05545,0.06103324,-0.9306264,-0.07255188,-10.26766,0
71013666.5,0.1,0.01,0.12,0.075,3.8,3.195,0.0,0.0,234.0,44.0,44.0,2.431314,-0.5754756,0.07425881,-1.047059,0.0196231,-9.958508,0
71064063.0,0.1,-0.95,0.14,1.35,3.8,3.2,0.0,0.0,233.0,47.0,47.0,-1.746351,1.718203,0.0853941,-1.030939,-0.02475332,-10.15712,0
71064063.0,0.1,-0.95,0.14,1.35,3.8,3.2,0.0,0.0,233.0,47.0,47.0,0.3677151,-2.518332,0.0783755,-1.055322,-0.01576825,-10.03167,0
71114043.0,0.095,0.12,0.15,0.13,3.8,3.2,0.0,0.0,234.0,44.0,44.0,1.120137,2.243612,0.07439933,-1.142728,-3.759e-05,-10.02956,0
71164023.0,0.09,1.19,0.16,-1.09,3.8,3.2,0.0,0.0,235.0,41.0,41.0,-2.361169,-0.8942128,0.07841593,-1.162675,-0.07336922,-10.08599,0
71164023.0,0.09,1.19,0.16,-1.09,3.8,3.2,0.0,0.0,235.0,41.0,41.0,2.357089,-0.2279054,0.0894127,-1.250793,-0.02497646,-9.984295,0
71214003.0,0.07,-0.03,0.14,0.13,3.8,3.2,0.0,0.0,234.0,44.0,44.0,-1.681117,2.129301,0.09769491,-1.256906,-0.02073227,-10.03876,0
71263983.0,0.05,-1.25,0.12,1.35,3.8,3.2,0.0,0.0,233.0,47.0,47.0,0.2793181,-2.066091,0.08649381,-1.294628,-0.01717531,-9.884023,0
71263983.0,0.05,-1.25,0.12,1.35,3.8,3.2,0.0,0.0,233.0,47.0,47.0,1.222412,2.569272,0.07956722,-1.438443,-0.01727115,-9.952492,0
71313963.0,0.065,-0.075,0.1,0.1,3.8,3.205,0.0,0.0,234.5,44.5,44.5,-2.267502,-0.4947179,0.08181807,-1.357422,-0.05616093,-9.756009,0
71363943.0,0.08,1.1,0.08,-1.15,3.8,3.21,0.0,0.0,236.0,42.0,42.0,2.339897,-0.05712957,0.08766834,-1.473229,-0.00410831,-9.80821,0
71363943.0,0.08,1.1,0.08,-1.15,3.8,3.21,0.0,0.0,236.0,42.0,42.0,-1.540967,2.270472,0.09259634,-1.475778,-0.01811623,-9.734386,0
71413923.0,0.09,-0.01,0.065,0.08,3.8,3.21,0.0,0.0,234.0,44.5,44.5,0.2532251,-1.901903,0.07860817,-1.457574,-3.099e-05,-9.670321,0
71463903.0,0.1,-1.12,0.05,1.31,3.8,3.21,0.0,0.0,232.0,47.0,47.0,1.332546,2.455741,0.06818794,-1.543519,0.01810281,-9.739357,0
71463903.0,0.1,-1.12,0.05,1.31,3.8,3.21,0.0,0.0,232.0,47.0,47.0,-2.221248,-0.1702154,0.07034785,-1.52734,-0.00113014,-9.61272,0
71513883.0,0.12,-0.025,0.045,0.02,3.8,3.22,0.0,0.0,233.5,44.5,44.5,2.244716,-0.3055597,0.07804906,-1.538823,0.00455918,-9.66112,0
71563863.0,0.14,1.07,0.04,-1.27,3.8,3.23,0.0,0.0,235.0,42.0,42.0,-1.416961,2.429113,0.07543957,-1.560516,-0.02031175,-9.651399,0
71563863.0,0.14,1.07,0.04,-1.27,3.8,3.23,0.0,0.0,235.0,42.0,42.0,0.0847517,-1.845035,0.06414153,-1.549124,-0.02560559,-9.681108,0
71613843.0,0.145,0.035,0.055,0.045,3.8,3.235,0.0,0.0,233.5,44.5,44.5,1.210314,2.543891,0.04981985,-1.546285,0.02174562,-9.712323,0
71663823.0,0.15,-1.0,0.07,1.36,3.8,3.24,0.0,0.0,232.0,47.0,47.0,-2.162755,-0.4116378,0.05109589,-1.568525,0.00750973,-9.631768,0
71663823.0,0.15,-1.0,0.07,1.36,3.8,3.24,0.0,0.0,232.0,47.0,47.0,2.357201,0.07573937,0.05601021,-1.490459,0.00832966,-9.752098,0
71713803.0,0.185,0.03,0.07,0.065,3.8,3.245,0.0,0.0,233.5,43.5,43.5,-1.580655,2.143947,0.05441727,-1.51327,-0.00931116,-9.674232,0
71763783.0,0.22,1.06,0.07,-1.23,3.8,3.25,0.0,0.0,235.0,40.0,40.0,0.4893413,-1.985044,0.04509003,-1.484332,-0.03330268,-9.699164,0
71763783.0,0.22,1.06,0.07,-1.23,3.8,3.25,0.0,0.0,235.0,40.0,40.0,1.089071,2.350053,0.03189333,-1.431159,-0.00724174,-9.741396,0
71813763.0,0.215,0.315,0.06,0.095,3.8,3.26,0.0,0.0,233.5,42.0,42.0,-2.036148,-0.8364921,0.02835813,-1.48015,-0.02539758,-9.716736,0
71863743.0,0.21,-0.43,0.05,1.42,3.8,3.27,0.0,0.0,232.0,44.0,44.0,2.324168,-0.1952406,0.03393794,-1.432185,0.01247221,-9.85519,0
71863743.0,0.21,-0.43,0.05,1.42,3.8,3.27,0.0,0.0,232.0,44.0,44.0,-1.608863,1.831896,0.03456756,-1.40169,0.03098164,-9.761581,0
71913723.0,0.185,0.22,0.055,0.055,3.8,3.27,0.0,0.0,233.5,41.0,41.0,0.2703218,-2.229951,0.02458988,-1.367538,0.00522278,-9.796116,0
71963703.0,0.16,0.87,0.06,-1.31,3.8,3.27,0.0,0.0,235.0,38.0,38.0,1.129546,2.097195,0.0122898,-1.375252,0.02548173,-9.873782,0
71963703.0,0.16,0.87,0.06,-1.31,3.8,3.27,0.0,0.0,235.0,38.0,38.0,-2.15328,-0.8810528,0.01543108,-1.258634,-0.0714187,-9.797714,0
72013683.0,0.125,0.25,0.05,0.17,3.8,3.275,0.0,0.0,234.5,42.0,42.0,2.284039,-0.4457228,0.02291341,-1.300808,-0.02374363,-9.912624,0
72063663.0,0.09,-0.37,0.04,1.65,3.8,3.28,0.0,0.0,234.0,46.0,46.0,-1.510765,1.900172,0.02428129,-1.2536,-0.0725106,-9.8299,0
72063663.0,0.09,-0.37,0.04,1.65,3.8,3.28,0.0,0.0,234.0,46.0,46.0,0.150656,-2.251453,0.01805694,-1.200617,-0.01437985,-9.943389,0
72113643.0,0.13,0.015,0.04,-0.05,3.8,3.275,0.0,0.0,233.5,43.0,43.0,1.262706,2.007957,0.00641902,-1.184162,0.06062255,-9.921005,0
72163623.0,0.17,0.4,0.04,-1.75,3.8,3.27,0.0,0.0,233.0,40.0,40.0,-2.214155,-0.6778454,0.01226034,-1.150657,-0.05006337,-9.826947,0
72163623.0,0.17,0.4,0.04,-1.75,3.8,3.27,0.0,0.0,233.0,40.0,40.0,2.174076,-0.7598959,0.02441431,-1.145973,0.00759568,-9.910122,0
72213603.0,0.19,-0.045,0.085,-0.16,3.8,3.265,0.0,0.0,232.0,43.5,43.5,-1.139252,2.061735,0.02676374,-1.112619,-0.03604879,-9.812755,0
72263583.0,0.21,-0.49,0.13,1.43,3.8,3.26,0.0,0.0,231.0,47.0,47.0,-0.2807178,-2.23078,0.01440316,-1.075422,-0.00156092,-9.940031,0
72263583.0,0.21,-0.49,0.13,1.43,3.8,3.26,0.0,0.0,231.0,47.0,47.0,1.69586,1.654133,0.01018106,-1.076986,0.0399009,-9.917166,0
72313563.0,0.26,0.025,0.15,-0.06,3.8,3.25,0.0,0.0,232.0,44.0,44.0,-2.320424,-0.100715,0.01945801,-0.9936178,-0.04282524,-9.878359,0
72363543.0,0.31,0.54,0.17,-1.55,3.8,3.24,0.0,0.0,233.0,41.0,41.0,1.87315,-1.223517,0.0321357,-0.9763788,0.02684576,-9.9788,0
72363543.0,0.31,0.54,0.17,-1.55,3.8,3.24,0.0,0.0,233.0,41.0,41.0,-0.7194402,2.286445,0.02964005,-1.021986,-0.00339099,-9.828318,0
72413523.0,0.16,-0.065,-0.065,-0.17,3.8,3.24,0.0,0.0,232.5,44.0,44.0,-0.88765,-2.097726,0.02039225,-0.903496,-0.04863168,-9.8843,0
72463503.0,0.01,-0.67,-0.3,1.21,3.8,3.24,0.0,0.0,232.0,47.0,47.0,2.014812,1.155763,0.01967748,-0.9384695,0.05103379,-9.92392,0
72463503.0,0.01,-0.67,-0.3,1.21,3.8,3.24,0.0,0.0,232.0,47.0,47.0,-2.41721,0.2422559,0.03275817,-0.8829132,0.00323565,-9.857435,0
72513483.0,-0.635,-0.235,-1.215,-1.065,3.815,3.255,0.0,0.0,228.5,45.0,45.0,1.793593,-1.532595,0.03779931,-0.9328135,0.00301793,-9.894487,0
72563463.0,-1.28,0.2,-2.13,-3.34,3.83,3.27,0.0,0.0,225.0,43.0,43.0,-0.6259504,2.347276,0.03720805,-0.8845361,0.00951012,-9.924447,0
72563463.0,-1.28,0.2,-2.13,-3.34,3.83,3.27,0.0,0.0,225.0,43.0,43.0,-0.7250285,-2.176342,0.02631097,-0.8168262,0.00799364,-9.978907,0
72613443.0,-2.25,-1.4,-3.42,-3.265,3.885,3.285,0.0,0.0,213.5,51.0,51.0,1.954454,1.469828,0.02829356,-0.8261999,-0.01575346,-9.985755,0
72663423.0,-3.22,-3.0,-4.71,-3.19,3.94,3.3,0.0,0.0,202.0,59.0,59.0,-2.346982,-0.06253164,0.03926021,-0.7577184,-0.06476562,-9.90414,0
72663423.0,-3.22,-3.0,-4.71,-3.19,3.94,3.3,0.0,0.0,202.0,59.0,59.0,2.051534,-1.236877,0.04843665,-0.7449458,0.00335285,-9.952291,0
72713403.0,-4.285,-3.315,-6.13,-6.065,4.05,3.475,0.0,0.0,189.5,65.0,65.0,-0.892007,2.282401,0.0458051,-0.7427865,-0.00681633,-9.848571,0
72763383.0,-5.35,-3.63,-7.55,-8.94,4.16,3.65,0.0,0.0,177.0,71.0,71.0,-0.4532451,-2.291357,0.0400045,-0.6821511,0.01541868,-9.884274,0
72763383.0,-5.35,-3.63,-7.55,-8.94,4.16,3.65,0.0,0.0,177.0,71.0,71.0,1.707426,1.662271,0.03449672,-0.7216192,-0.01126293,-9.926786,0
72813363.0,-6.405,-5.45,-8.975,-8.8,4.245,3.66,0.0,0.0,163.0,84.5,84.5,-2.330977,-0.387344,0.04467208,-0.7150083,-0.02466944,-9.883005,0
72863343.0,-7.46,-7.27,-10.4,-8.66,4.33,3.67,0.0,0.0,149.0,98.0,98.0,2.06982,-1.081517,0.05324277,-0.6437858,0.02157868,-9.967247,0
72863343.0,-7.46,-7.27,-10.4,-8.66,4.33,3.67,0.0,0.0,149.0,98.0,98.0,-1.004841,2.158487,0.0521444,-0.6421447,-0.04390218,-9.842104,0
72913323.0,-8.055,-7.66,-11.755,-11.38,3.36,4.02,0.0,0.0,137.0,105.5,105.5,-0.4531507,-2.287253,0.04420638,-0.5788167,0.01373446,-9.85981,0
72963303.0,-8.65,-8.05,-13.11,-14.1,2.39,4.37,0.0,0.0,125.0,113.0,113.0,1.733216,1.56086,0.03823728,-0.6428626,0.00932342,-9.888671,0
72963303.0,-8.65,-8.05,-13.11,-14.1,2.39,4.37,0.0,0.0,125.0,113.0,113.0,-2.33453,-0.2718399,0.04929908,-0.5537838,-0.02404188,-9.862983,0
73013283.0,-8.37,-9.065,-14.085,-13.08,179.965,3.955,0.0,0.0,115.5,124.0,124.0,2.042995,-1.21574,0.05584931,-0.5597476,-0.00131672,-9.894876,0
73063263.0,-8.09,-10.08,-15.06,-12.06,357.54,3.54,0.0,0.0,106.0,135.0,135.0,-0.8709023,2.225834,0.05193668,-0.5718739,-0.02238223,-9.861496,0
73063263.0,-8.09,-10.08,-15.06,-12.06,357.54,3.54,0.0,0.0,106.0,135.0,135.0,-0.5533659,-2.258996,0.04490064,-0.5525657,0.00118323,-9.849486,0
73113659.5,-7.31,-9.435,-15.725,-14.09,354.485,3.07,0.0,0.0,101.5,135.0,135.0,1.810043,1.487559,0.03855027,-0.5229156,0.0297263,-9.880032,0
73164056.0,-6.53,-8.79,-16.39,-16.12,351.43,2.6,0.0,0.0,97.0,135.0,135.0,-2.326694,-0.1641673,0.04770014,-0.4956434,-0.04905789,-9.840483,0
73164056.0,-6.53,-8.79,-16.39,-16.12,351.43,2.6,0.0,0.0,97.0,135.0,135.0,1.889904,-1.392944,0.05599238,-0.4525409,0.04011268,-9.934446,0
73214036.0,-5.635,-9.045,-16.87,-14.955,348.33,180.835,0.0,0.0,92.0,139.5,139.5,-0.6069587,2.226841,0.05029536,-0.5141965,-0.01795804,-9.860563,0
73264016.0,-4.74,-9.3,-17.35,-13.79,345.23,359.07,0.0,0.0,87.0,144.0,144.0,-0.9009684,-2.224661,0.03590149,-0.4199228,-0.01754089,-9.828609,0
73264016.0,-4.74,-9.3,-17.35,-13.79,345.23,359.07,0.0,0.0,87.0,144.0,144.0,1.918577,1.353657,0.03181039,-0.4622303,0.03837483,-9.903145,0
73313996.0,-3.805,-7.595,-17.715,-15.84,342.115,356.98,0.0,0.0,81.0,142.5,142.5,-2.391129,-0.01806824,0.03992045,-0.3978277,-0.03455155,-9.834078,0
73363976.0,-2.87,-5.89,-18.08,-17.89,339.0,354.89,0.0,0.0,75.0,141.0,141.0,1.952045,-1.320358,0.04688605,-0.3757593,-0.00336745,-9.923304,0
73363976.0,-2.87,-5.89,-18.08,-17.89,339.0,354.89,0.0,0.0,75.0,141.0,141.0,-0.8955296,2.228054,0.04203203,-0.4174438,0.00712005,-9.863631,0
73413956.0,-2.225,-6.07,-18.33,-16.885,336.765,351.685,0.0,0.0,64.5,146.5,146.5,-0.5235339,-2.350507,0.03217954,-0.3270829,-0.05712371,-9.827296,0
73463936.0,-1.58,-6.25,-18.58,-15.88,334.53,348.48,0.0,0.0,54.0,152.0,152.0,1.780725,1.585743,0.02948548,-0.3247769,0.03009377,-9.880689,0
73463936.0,-1.58,-6.25,-18.58,-15.88,334.53,348.48,0.0,0.0,54.0,152.0,152.0,-2.342786,-0.3446706,0.03444702,-0.3188778,-0.0419548,-9.833631,0
73513916.0,-1.235,-4.21,-18.8,-17.81,333.375,345.095,0.0,0.0,45.5,151.5,151.5,2.08374,-1.093686,0.04225932,-0.3556744,0.02947633,-9.884942,0
73563896.0,-0.89,-2.17,-19.02,-19.74,332.22,341.71,0.0,0.0,37.0,151.0,151.0,-0.9992549,2.111651,0.03926289,-0.303251,0.00593948,-9.876017,0
73563896.0,-0.89,-2.17,-19.02,-19.74,332.22,341.71,0.0,0.0,37.0,151.0,151.0,-0.4119913,-2.301064,0.02947079,-0.3224204,0.01452056,-9.854055,0
73613876.0,-0.735,-1.99,-19.255,-18.645,331.63,338.025,0.0,0.0,24.0,156.0,156.0,1.757676,1.553674,0.02560864,-0.321451,0.00219014,-9.843496,0
73663856.0,-0.58,-1.81,-19.49,-17.55,331.04,334.34,0.0,0.0,11.0,161.0,161.0,-2.33035,-0.225284,0.03151609,-0.3290888,-0.0271759,-9.809604,0
73663856.0,-0.58,-1.81,-19.49,-17.55,331.04,334.34,0.0,0.0,11.0,161.0,161.0,1.990567,-1.212127,0.04199684,-0.2278395,0.03586255,-9.855185,0
73713836.0,-0.49,0.205,-19.73,-19.03,330.74,330.87,0.0,0.0,2.0,158.0,158.0,-0.9236201,2.150956,0.03607003,-0.2991635,-0.01961946,-9.819804,0
73763816.0,-0.4,2.22,-19.97,-20.51,330.44,327.4,0.0,0.0,-7.0,155.0,155.0,-0.5969937,-2.327671,0.02716756,-0.2209794,-0.04975414,-9.843206,0
73763816.0,-0.4,2.22,-19.97,-20.51,330.44,327.4,0.0,0.0,-7.0,155.0,155.0,1.836666,1.431811,0.02600679,-0.328465,0.02592515,-9.847342,0
73813796.0,-0.39,2.45,-20.27,-19.355,330.295,324.485,0.0,0.0,-18.5,157.0,157.0,-2.341776,-0.1474554,0.03111358,-0.2087445,-0.03024761,-9.835142,0
73863776.0,-0.38,2.68,-20.57,-18.2,330.15,321.57,0.0,0.0,-30.0,159.0,159.0,1.900892,-1.318013,0.04199219,-0.2092247,-0.03992996,-9.849659,0
73863776.0,-0.38,2.68,-20.57,-18.2,330.15,321.57,0.0,0.0,-30.0,159.0,159.0,-0.709634,2.19751,0.03746977,-0.2101627,-0.04814636,-9.816309,0
73913756.0,-0.375,4.26,-20.84,-19.845,330.075,319.155,0.0,0.0,-39.0,152.5,152.5,-0.8808577,-2.163554,0.02639038,-0.2233924,-0.04169314,-9.851859,0
73963736.0,-0.37,5.84,-21.11,-21.49,330.0,316.74,0.0,0.0,-48.0,146.0,146.0,1.993456,1.092298,0.02467986,-0.1882096,0.03266413,-9.832939,0
73963736.0,-0.37,5.84,-21.11,-21.49,330.0,316.74,0.0,0.0,-48.0,146.0,146.0,-2.292105,0.2937545,0.03745827,-0.2038204,-0.04519659,-9.842518,0
74013716.0,-0.395,5.515,-20.915,-19.83,329.965,315.43,0.0,0.0,-55.5,148.5,148.5,1.545314,-1.764915,0.04293365,-0.1773582,-0.02501579,-9.928843,0
74063696.0,-0.42,5.19,-20.72,-18.17,329.93,314.12,0.0,0.0,-63.0,151.0,151.0,-0.04083711,2.213191,0.03559957,-0.1809318,-0.03358917,-10.03075,0
74063696.0,-0.42,5.19,-20.72,-18.17,329.93,314.12,0.0,0.0,-63.0,151.0,151.0,-1.267154,-2.141116,0.02610978,-0.168959,-0.00185942,-9.94759,0
74113676.0,-0.395,5.585,-19.85,-18.94,329.905,313.345,0.0,0.0,-60.5,148.5,148.5,2.344618,0.2720411,0.02925682,-0.1704971,0.0061179,-9.988104,0
74163656.0,-0.37,5.98,-18.98,-19.71,329.88,312.57,0.0,0.0,-58.0,146.0,146.0,-2.112506,0.4920483,0.03949183,-0.1823275,-0.04968428,-9.982716,0
74163656.0,-0.37,5.98,-18.98,-19.71,329.88,312.57,0.0,0.0,-58.0,146.0,146.0,1.091686,-2.572182,0.0431853,-0.1289236,-0.00195766,-9.941346,0
74213636.0,-0.34,5.06,-17.74,-17.19,329.86,312.785,0.0,0.0,-51.0,152.5,152.5,0.2665977,1.902728,0.03193091,-0.2053003,-0.0184228,-9.96139,0
74263616.0,-0.31,4.14,-16.5,-14.67,329.84,313.0,0.0,0.0,-44.0,159.0,159.0,-1.643612,-2.356258,0.0292917,-0.1281459,-0.0150056,-9.903386,0
74263616.0,-0.31,4.14,-16.5,-14.67,329.84,313.0,0.0,0.0,-44.0,159.0,159.0,2.33153,-0.05066311,0.03373858,-0.2081519,-0.0378253,-9.951841,0
74313596.0,-0.255,4.12,-15.11,-14.92,329.825,313.54,0.0,0.0,-31.5,159.5,159.5,-2.269471,0.1579721,0.04762178,-0.1656094,-0.00824039,-10.02524,0
74363576.0,-0.2,4.1,-13.72,-15.17,329.81,314.08,0.0,0.0,-19.0,160.0,160.0,1.381177,-2.617167,0.04732211,-0.1774729,0.01300389,-9.886909,0
74363576.0,-0.2,4.1,-13.72,-15.17,329.81,314.08,0.0,0.0,-19.0,160.0,160.0,-0.03953066,1.809278,0.03973985,-0.2082139,0.04030981,-9.992333,0
74413556.0,-0.175,2.86,-12.27,-12.275,329.8,315.215,0.0,0.0,-4.0,167.0,167.0,-1.37563,-2.610331,0.03481363,-0.1684884,-0.00502317,-10.01035,0
74463536.0,-0.15,1.62,-10.82,-9.38,329.79,316.35,0.0,0.0,11.0,174.0,174.0,2.28029,0.2897314,0.0405902,-0.2599015,0.02223973,-9.994111,0
74463536.0,-0.15,1.62,-10.82,-9.38,329.79,316.35,0.0,0.0,11.0,174.0,174.0,-2.371599,-0.00860066,0.0493743,-0.2246314,-0.00259395,-10.11572,0
74513516.0,-0.16,1.885,-9.34,-9.395,329.79,317.68,0.0,0.0,29.5,173.0,173.0,1.635179,-2.34938,0.05639647,-0.2516791,-0.03595664,-9.955276,0
74563496.0,-0.17,2.15,-7.86,-9.41,329.79,319.01,0.0,0.0,48.0,172.0,172.0,-0.3422518,1.966705,0.04752025,-0.3206931,-0.01828594,-10.15784,0
74563496.0,-0.17,2.15,-7.86,-9.41,329.79,319.01,0.0,0.0,48.0,172.0,172.0,-1.251368,-2.499574,0.0406001,-0.277621,-0.0467774,-10.19844,0
74613476.0,-0.21,0.725,-6.33,-6.51,329.79,320.55,0.0,0.0,66.0,177.0,177.0,2.241108,0.7012303,0.04494712,-0.3856077,0.02162044,-10.05529,0
74663456.0,-0.25,-0.7,-4.8,-3.61,329.79,322.09,0.0,0.0,84.0,182.0,182.0,-2.414041,0.3831809,0.05290835,-0.4194103,-0.05428737,-10.28177,0
74663456.0,-0.25,-0.7,-4.8,-3.61,329.79,322.09,0.0,0.0,84.0,182.0,182.0,1.577044,-1.960977,0.0600863,-0.4082721,-0.01841686,-10.04316,0
74713436.0,-0.255,0.02,-3.505,-3.535,329.785,323.7,0.0,0.0,104.5,178.5,178.5,-0.2150057,2.403156,0.04885946,-0.4775878,0.00371714,-10.23342,0
74763416.0,-0.26,0.74,-2.21,-3.46,329.78,325.31,0.0,0.0,125.0,175.0,175.0,-1.287614,-2.182744,0.04140875,-0.4901244,0.00317884,-10.10257,0
74763416.0,-0.26,0.74,-2.21,-3.46,329.78,325.31,0.0,0.0,125.0,175.0,175.0,2.353869,0.836621,0.04801985,-0.544108,-0.01176588,-10.09921,0
74813396.0,-0.285,-0.115,-1.45,-1.12,329.78,326.865,0.0,0.0,140.0,174.0,174.0,-2.335268,0.5980859,0.05562858,-0.6003548,-0.04716921,-10.23244,0
74863376.0,-0.31,-0.97,-0.69,1.22,329.78,328.42,0.0,0.0,155.0,173.0,173.0,1.549353,-1.976906,0.05997873,-0.5834649,-0.01131349,-9.971519,0
74863376.0,-0.31,-0.97,-0.69,1.22,329.78,328.42,0.0,0.0,155.0,173.0,173.0,-0.08550118,2.40224,0.04981238,-0.6721309,-0.02272073,-10.1829,0
74913356.0,-0.315,-0.125,-0.24,0.18,329.775,329.83,0.0,0.0,166.0,165.5,165.5,-1.414061,-2.04357,0.0420848,-0.6895087,-0.03564622,-10.04197,0
74963336.0,-0.32,0.72,0.21,-0.86,329.77,331.24,0.0,0.0,177.0,158.0,158.0,2.361259,0.4924592,0.04668316,-0.7436212,0.00867965,-10.05191,0
74963336.0,-0.32,0.72,0.21,-0.86,329.77,331.24,0.0,0.0,177.0,158.0,158.0,-2.257186,0.8798383,0.06089662,-0.7600235,-0.02208797,-10.19614,0
75013316.0,-0.35,-0.065,0.565,0.9,329.77,332.37,0.0,0.0,183.0,157.0,157.0,1.384418,-2.148217,0.06548683,-0.7803087,-0.00637078,-9.984715,0
75063296.0,-0.38,-0.85,0.92,2.66,329.77,333.5,0.0,0.0,189.0,156.0,156.0,0.03940268,2.408081,0.0535875,-0.9413888,-0.02320907,-10.14156,0
75063296.0,-0.38,-0.85,0.92,2.66,329.77,333.5,0.0,0.0,189.0,156.0,156.0,-1.433825,-2.142163,0.04624017,-0.8337362,-0.01272343,-10.02519,0
75113692.5,-0.375,-0.185,1.24,1.275,329.77,334.295,0.0,0.0,193.5,150.0,150.0,2.348916,0.7852909,0.0493146,-0.977344,-0.01961193,-10.05553,0
75164089.0,-0.37,0.48,1.56,-0.11,329.77,335.09,0.0,0.0,198.0,144.0,144.0,-2.482619,0.5109237,0.05826769,-0.9494708,-0.03554525,-10.17059,0
75164089.0,-0.37,0.48,1.56,-0.11,329.77,335.09,0.0,0.0,198.0,144.0,144.0,1.621784,-1.999117,0.05961497,-0.9964635,-0.00205514,-9.894892,0
75214069.0,-0.375,-0.295,1.89,1.8,329.77,335.49,0.0,0.0,202.0,146.0,146.0,-0.3337712,2.452412,0.05348173,-1.059367,-0.03262348,-10.09172,0
75264049.0,-0.38,-1.07,2.22,3.71,329.77,335.89,0.0,0.0,206.0,148.0,148.0,-1.194654,-2.150231,0.04143438,-1.106518,-0.02020983,-9.966724,0
75264049.0,-0.38,-1.07,2.22,3.71,329.77,335.89,0.0,0.0,206.0,148.0,148.0,2.191637,1.175536,0.04490351,-1.173698,-0.01261482,-9.963254,0
75314029.0,-0.325,-0.195,2.465,2.41,329.77,335.95,0.0,0.0,209.5,144.0,144.0,-2.493335,0.7042004,0.05305849,-1.17269,-0.03313446,-10.03883,0
75364009.0,-0.27,0.68,2.71,1.11,329.77,336.01,0.0,0.0,213.0,140.0,140.0,1.579725,-1.547456,0.05579845,-1.281686,-0.02144495,-9.889254,0
75364009.0,-0.27,0.68,2.71,1.11,329.77,336.01,0.0,0.0,213.0,140.0,140.0,-0.2651889,2.815251,0.0490539,-1.258909,-0.00703201,-9.96892,0
75413989.0,-0.24,-0.175,2.95,2.7,329.77,335.74,0.0,0.0,213.0,143.0,143.0,-1.237396,-1.665191,0.03646231,-1.345798,-0.03797185,-9.789171,0
75463969.0,-0.21,-1.03,3.19,4.29,329.77,335.47,0.0,0.0,213.0,146.0,146.0,2.229727,1.415395,0.04113542,-1.397139,-0.02752786,-9.854383,0
75463969.0,-0.21,-1.03,3.19,4.29,329.77,335.47,0.0,0.0,213.0,146.0,146.0,-2.377709,1.02021,0.04912001,-1.374141,-0.01404095,-9.744061,0
75513949.0,-0.18,-0.19,3.4,3.08,329.77,334.965,0.0,0.0,215.0,144.5,144.5,1.515804,-1.37619,0.04996454,-1.415405,0.05039127,-9.732517,0
75563929.0,-0.15,0.65,3.61,1.87,329.77,334.46,0.0,0.0,217.0,143.0,143.0,-0.1697317,2.867017,0.0432955,-1.458651,0.01162169,-9.748709,0
75563929.0,-0.15,0.65,3.61,1.87,329.77,334.46,0.0,0.0,217.0,143.0,143.0,-1.25308,-1.457846,0.03117121,-1.487068,-0.04745837,-9.649493,0
75613909.0,-0.125,-0.11,3.755,3.435,329.77,333.775,0.0,0.0,216.0,147.5,147.5,2.225194,1.296666,0.03652165,-1.520621,0.04639413,-9.73415,0
75663889.0,-0.1,-0.87,3.9,5.0,329.77,333.09,0.0,0.0,215.0,152.0,152.0,-2.175681,1.311173,0.04735976,-1.55531,-0.04864214,-9.605448,0
75663889.0,-0.1,-0.87,3.9,5.0,329.77,333.09,0.0,0.0,215.0,152.0,152.0,1.186334,-1.436385,0.04739226,-1.566438,-0.0386722,-9.678356,0
75713869.0,-0.075,-0.135,3.995,3.685,329.77,332.325,0.0,0.0,215.5,151.5,151.5,0.2553564,2.797943,0.03354426,-1.587445,-0.00666586,-9.629517,0
75763849.0,-0.05,0.6,4.09,2.37,329.77,331.56,0.0,0.0,216.0,151.0,151.0,-1.632309,-1.086257,0.02804415,-1.538309,-0.04443069,-9.626096,0
75763849.0,-0.05,0.6,4.09,2.37,329.77,331.56,0.0,0.0,216.0,151.0,151.0,2.312362,0.7511711,0.03636405,-1.517225,0.03470486,-9.706652,0
75813829.0,-0.035,-0.165,4.17,3.885,329.77,330.785,0.0,0.0,214.0,157.0,157.0,-1.8284,1.744021,0.04625675,-1.563009,-0.01211219,-9.637682,0
75863809.0,-0.02,-0.93,4.25,5.4,329.77,330.01,0.0,0.0,212.0,163.0,163.0,0.8116701,-1.750323,0.04138723,-1.478547,0.02866123,-9.718303,0
75863809.0,-0.02,-0.93,4.25,5.4,329.77,330.01,0.0,0.0,212.0,163.0,163.0,0.8801578,2.497526,0.02778985,-1.557081,-0.0412599,-9.725687,0
75913789.0,-0.01,-0.33,4.305,3.985,329.77,329.32,0.0,0.0,211.0,162.0,162.0,-1.911299,-0.8539984,0.02675459,-1.417939,-0.05404191,-9.667952,0
75963769.0,0.0,0.27,4.36,2.57,329.77,328.63,0.0,0.0,210.0,161.0,161.0,2.474707,0.03955834,0.03939959,-1.467505,0.0414075,-9.791547,0
75963769.0,0.0,0.27,4.36,2.57,329.77,328.63,0.0,0.0,210.0,161.0,161.0,-1.75602,1.688493,0.04314874,-1.476051,-0.04049596,-9.693857,0
76013749.0,0.015,-0.315,4.415,4.18,329.775,328.055,0.0,0.0,208.5,167.0,167.0,0.6382873,-2.169062,0.04202671,-1.351335,-0.01085779,-9.820793,0
76063729.0,0.03,-0.9,4.47,5.79,329.78,327.48,0.0,0.0,207.0,173.0,173.0,0.6726696,2.31089,0.02963969,-1.38734,-0.00678523,-9.846087,0
76063729.0,0.03,-0.9,4.47,5.79,329.78,327.48,0.0,0.0,207.0,173.0,173.0,-1.949101,-1.340218,0.02910973,-1.301108,-0.06984147,-9.780293,0
76113709.0,0.08,-0.625,4.465,4.24,329.78,327.09,0.0,0.0,206.0,172.0,172.0,2.307322,0.1965554,0.0378404,-1.330313,-0.01122594,-9.891661,0
76163689.0,0.13,-0.35,4.46,2.69,329.78,326.7,0.0,0.0,205.0,171.0,171.0,-2.07665,1.333007,0.04570919,-1.28714,-0.0153465,-9.828657,0
76163689.0,0.13,-0.35,4.46,2.69,329.78,326.7,0.0,0.0,205.0,171.0,171.0,0.8778001,-2.122724,0.04142235,-1.222715,0.00848958,-9.842324,0
76213669.0,0.155,-0.285,4.45,4.24,329.78,326.475,0.0,0.0,204.5,174.0,174.0,0.406137,2.425232,0.03424113,-1.26903,0.0432586,-9.824806,0
76263649.0,0.18,-0.22,4.44,5.79,329.78,326.25,0.0,0.0,204.0,177.0,177.0,-1.708726,-1.537761,0.02800935,-1.216049,-0.03678666,-9.824286,0
76263649.0,0.18,-0.22,4.44,5.79,329.78,326.25,0.0,0.0,204.0,177.0,177.0,2.334,0.4908855,0.03660544,-1.139051,0.02123328,-9.955696,0
76313629.0,0.17,-0.11,4.415,4.255,329.78,326.195,0.0,0.0,203.0,173.5,173.5,-2.061666,1.14851,0.04456908,-1.182704,-0.03097897,-9.789663,0
76363609.0,0.16,0.0,4.39,2.72,329.78,326.14,0.0,0.0,202.0,170.0,170.0,1.027639,-2.07785,0.04315813,-1.096077,0.04355887,-9.911575,0
76363609.0,0.16,0.0,4.39,2.72,329.78,326.14,0.0,0.0,202.0,170.0,170.0,0.4480308,2.372296,0.03513287,-1.129994,-0.00442279,-9.871821,0
76413589.0,0.135,-0.165,4.365,4.355,329.78,326.23,0.0,0.0,203.0,173.0,173.0,-1.721822,-1.478498,0.02944123,-1.104404,-0.01340621,-9.860706,0
76463569.0,0.11,-0.33,4.34,5.99,329.78,326.32,0.0,0.0,204.0,176.0,176.0,2.354427,0.3435334,0.04058615,-1.059343,0.05253213,-9.982573,0
76463569.0,0.11,-0.33,4.34,5.99,329.78,326.32,0.0,0.0,204.0,176.0,176.0,-2.031306,1.267826,0.04743883,-0.9721493,-0.01498389,-9.825094,0
76513549.0,0.105,-0.1,4.28,4.345,329.78,326.54,0.0,0.0,204.0,172.5,172.5,0.9020157,-2.159488,0.0433403,-0.9474058,0.00429386,-9.926737,0
76563529.0,0.1,0.13,4.22,2.7,329.78,326.76,0.0,0.0,204.0,169.0,169.0,0.5710841,2.324255,0.03659999,-1.003483,-0.04142499,-9.883753,0
76563529.0,0.1,0.13,4.22,2.7,329.78,326.76,0.0,0.0,204.0,169.0,169.0,-1.791077,-1.442025,0.03084288,-0.9397979,-0.00875802,-9.834909,0
76613509.0,0.09,-0.2,4.16,4.19,329.78,327.06,0.0,0.0,204.5,171.5,171.5,2.36544,0.2054139,0.04077804,-0.8906626,0.001189,-9.987872,0
76663489.0,0.08,-0.53,4.1,5.68,329.78,327.36,0.0,0.0,205.0,174.0,174.0,-1.887434,1.367701,0.05066448,-0.8940243,0.02885747,-9.871202,0
76663489.0,0.08,-0.53,4.1,5.68,329.78,327.36,0.0,0.0,205.0,174.0,174.0,0.6199393,-2.203966,0.04506937,-0.871904,-0.03661049,-9.950381,0
76713469.0,0.1,-0.115,4.045,3.995,329.78,327.72,0.0,0.0,205.0,169.5,169.5,0.8669661,2.220411,0.0314577,-0.8258896,0.02210448,-9.879478,0
76763449.0,0.12,0.3,3.99,2.31,329.78,328.08,0.0,0.0,205.0,165.0,165.0,-1.952449,-1.300623,0.02860023,-0.7624879,0.01704207,-9.871239,0
76763449.0,0.12,0.3,3.99,2.31,329.78,328.08,0.0,0.0,205.0,165.0,165.0,2.391797,0.04277464,0.03832188,-0.775291,-0.00433001,-9.986806,0
76813429.0,0.12,-0.07,3.94,3.805,329.78,328.445,0.0,0.0,205.0,167.0,167.0,-1.930506,1.363636,0.04611753,-0.7542692,0.01862277,-9.834391,0
76863409.0,0.12,-0.44,3.89,5.3,329.78,328.81,0.0,0.0,205.0,169.0,169.0,0.8775396,-2.211337,0.04201977,-0.7570711,0.04196506,-9.941747,0
76863409.0,0.12,-0.44,3.89,5.3,329.78,328.81,0.0,0.0,205.0,169.0,169.0,0.5413095,2.395305,0.03336836,-0.7655373,0.04506386,-9.908633,0
76913389.0,0.15,-0.035,3.825,3.67,329.78,329.15,0.0,0.0,205.5,164.5,164.5,-1.790975,-1.543164,0.03169896,-0.6827247,-0.01506667,-9.846734,0
76963369.0,0.18,0.37,3.76,2.04,329.78,329.49,0.0,0.0,206.0,160.0,160.0,2.361342,0.358843,0.03718027,-0.7100153,0.02594366,-9.923688,0
76963369.0,0.18,0.37,3.76,2.04,329.78,329.49,0.0,0.0,206.0,160.0,160.0,-2.071028,1.112802,0.04647142,-0.711587,-0.06072556,-9.830777,0
77013349.0,0.2,0.02,3.705,3.53,329.78,329.78,0.0,0.0,206.5,162.5,162.5,1.008971,-2.111564,0.04396741,-0.6335132,0.006702,-9.922657,0
77063329.0,0.22,-0.33,3.65,5.02,329.78,330.07,0.0,0.0,207.0,165.0,165.0,0.4364058,2.336566,0.03516004,-0.6209641,-0.03084709,-9.87484,0
77063329.0,0.22,-0.33,3.65,5.02,329.78,330.07,0.0,0.0,207.0,165.0,165.0,-1.761223,-1.544466,0.03208256,-0.5473737,0.00202347,-9.867523,0
77113309.0,0.245,0.005,3.58,3.425,329.78,330.29,0.0,0.0,207.0,160.5,160.5,2.350689,0.2290556,0.03845226,-0.574874,0.01962813,-9.933814,0
77163289.0,0.27,0.34,3.51,1.83,329.78,330.51,0.0,0.0,207.0,156.0,156.0,-1.972092,1.199624,0.04969073,-0.5748382,0.02362606,-9.860671,0
77163289.0,0.27,0.34,3.51,1.83,329.78,330.51,0.0,0.0,207.0,156.0,156.0,0.9293632,-2.178486,0.04383871,-0.5692134,-0.02962423,-9.910107,0
77213685.5,0.29,0.19,3.43,3.435,329.78,330.65,0.0,0.0,207.5,158.5,158.5,0.6017502,2.31026,0.0347633,-0.5242404,-0.03965155,-9.869957,0
77264082.0,0.31,0.04,3.35,5.04,329.78,330.79,0.0,0.0,208.0,161.0,161.0,-1.849401,-1.44849,0.03368234,-0.527587,0.03465308,-9.861128,0
77264082.0,0.31,0.04,3.35,5.04,329.78,330.79,0.0,0.0,208.0,161.0,161.0,2.3438,0.09795856,0.03890038,-0.4999812,-0.00711334,-9.96258,0
77314062.0,0.305,0.32,3.225,3.29,329.78,330.825,0.0,0.0,207.5,156.5,156.5,-1.911351,1.274162,0.04936656,-0.4924486,0.02472542,-9.820871,0
77364042.0,0.3,0.6,3.1,1.54,329.78,330.86,0.0,0.0,207.0,152.0,152.0,0.7010283,-2.239297,0.04444878,-0.4447096,-0.04938169,-9.954198,0
77364042.0,0.3,0.6,3.1,1.54,329.78,330.86,0.0,0.0,207.0,152.0,152.0,0.8628982,2.137641,0.03434244,-0.4336134,-0.00357131,-9.863769,0
77414022.0,0.225,0.405,2.44,2.7,329.74,330.835,0.0,0.0,205.0,154.5,154.5,-2.001721,-1.107234,0.03188125,-0.4220807,-0.02945665,-9.853947,0
77464002.0,0.15,0.21,1.78,3.86,329.7,330.81,0.0,0.0,203.0,157.0,157.0,2.283698,-0.3170912,0.0443106,-0.3674448,0.01839435,-9.879475,0
77464002.0,0.15,0.21,1.78,3.86,329.7,330.81,0.0,0.0,203.0,157.0,157.0,-1.540607,1.727264,0.04946569,-0.4126439,-0.01275418,-9.87195,0
77513982.0,0.055,0.61,0.43,0.955,329.615,330.665,0.0,0.0,194.5,153.5,153.5,0.1027936,-2.31436,0.0422285,-0.3782111,-0.02686063,-9.929943,0
77563962.0,-0.04,1.01,-0.92,-1.95,329.53,330.52,0.0,0.0,186.0,150.0,150.0,1.300437,1.867484,0.03064884,-0.4027443,-0.00979479,-9.836554,0
77563962.0,-0.04,1.01,-0.92,-1.95,329.53,330.52,0.0,0.0,186.0,150.0,150.0,-2.229277,-0.6813859,0.03491863,-0.3574704,-0.07335383,-9.812319,0
77613942.0,-0.17,0.465,-2.545,-1.985,329.415,330.36,0.0,0.0,171.5,154.5,154.5,2.141654,-0.9504362,0.04409041,-0.3808155,0.01651362,-9.94309,0
77663922.0,-0.3,-0.08,-4.17,-2.02,329.3,330.2,0.0,0.0,157.0,159.0,159.0,-1.063107,1.976386,0.04623953,-0.3433252,-0.03777772,-9.834073,0
77663922.0,-0.3,-0.08,-4.17,-2.02,329.3,330.2,0.0,0.0,157.0,159.0,159.0,-0.2818858,-2.449749,0.03504103,-0.2795594,0.04959878,-9.837458,0
77713902.0,-0.385,0.045,-5.895,-5.405,329.19,329.965,0.0,0.0,140.0,158.0,158.0,1.606058,1.70949,0.03079575,-0.2817106,0.01090974,-9.862207,0
77763882.0,-0.47,0.17,-7.62,-8.79,329.08,329.73,0.0,0.0,123.0,157.0,157.0,-2.317634,-0.5581869,0.03381934,-0.3152153,-0.00568613,-9.815004,0
77763882.0,-0.47,0.17,-7.62,-8.79,329.08,329.73,0.0,0.0,123.0,157.0,157.0,2.208567,-0.7926056,0.04556821,-0.2741618,0.0176352,-9.862172,0
77813862.0,-0.515,-0.1,-9.315,-8.835,328.98,329.475,0.0,0.0,106.0,162.5,162.5,-1.370237,1.966763,0.04393258,-0.3178954,-0.00918089,-9.804104,0
77863842.0,-0.56,-0.37,-11.01,-8.88,328.88,329.22,0.0,0.0,89.0,168.0,168.0,0.01617746,-2.384477,0.03498914,-0.2379504,-0.05533947,-9.860388,0
77863842.0,-0.56,-0.37,-11.01,-8.88,328.88,329.22,0.0,0.0,89.0,168.0,168.0,1.330599,1.970851,0.02899433,-0.297814,0.01831712,-9.85337,0
77913822.0,-0.595,-0.2,-12.705,-12.195,328.805,328.935,0.0,0.0,72.5,165.5,165.5,-2.230955,-0.8470407,0.03298002,-0.2514536,-0.0150671,-9.875871,0
77963802.0,-0.63,-0.03,-14.4,-15.51,328.73,328.65,0.0,0.0,56.0,163.0,163.0,2.310734,-0.5568525,0.04070259,-0.2042572,-0.00520082,-9.868858,0
77963802.0,-0.63,-0.03,-14.4,-15.51,328.73,328.65,0.0,0.0,56.0,163.0,163.0,-1.581312,1.715004,0.0470701,-0.2335063,0.05571591,-9.825454,0
78013782.0,-0.67,-0.08,-15.685,-15.255,328.675,328.385,0.0,0.0,40.0,167.0,167.0,0.3169022,-2.374186,0.03658791,-0.2233456,-0.0315979,-9.897729,0
78063762.0,-0.71,-0.13,-16.97,-15.0,328.62,328.12,0.0,0.0,24.0,171.0,171.0,1.1393,2.031595,0.0300603,-0.2211333,0.03266273,-9.839009,0
78063762.0,-0.71,-0.13,-16.97,-15.0,328.62,328.12,0.0,0.0,24.0,171.0,171.0,-2.183139,-0.941764,0.03281169,-0.2346558,-0.01589633,-9.781708,0
78113742.0,-0.7,-0.225,-17.585,-17.205,328.57,327.855,0.0,0.0,13.0,168.5,168.5,2.279523,-0.5353302,0.04011913,-0.1701039,0.02189694,-9.87245,0
78163722.0,-0.69,-0.32,-18.2,-19.41,328.52,327.59,0.0,0.0,2.0,166.0,166.0,-1.506606,1.732718,0.04668221,-0.2024436,0.01323359,-9.844662,0
78163722.0,-0.69,-0.32,-18.2,-19.41,328.52,327.59,0.0,0.0,2.0,166.0,166.0,0.2597178,-2.495197,0.03669733,-0.1706392,0.01935855,-9.983283,0
78213702.0,-0.695,0.025,-18.515,-18.04,328.48,327.375,0.0,0.0,-0.5,169.5,169.5,1.36336,1.807407,0.02855788,-0.1951913,0.04736858,-9.978141,0
78263682.0,-0.7,0.37,-18.83,-16.67,328.44,327.16,0.0,0.0,-3.0,173.0,173.0,-2.180435,-1.171618,0.03811631,-0.1230954,-0.01850594,-9.926167,0
78263682.0,-0.7,0.37,-18.83,-16.67,328.44,327.16,0.0,0.0,-3.0,173.0,173.0,2.369072,-1.046096,0.05335303,-0.1571995,0.00893624,-10.03621,0
78313662.0,-0.695,-0.04,-19.085,-18.52,328.41,326.99,0.0,0.0,-7.5,170.0,170.0,-1.368348,1.328986,0.06742146,-0.204946,-0.01551517,-9.960964,0
78363642.0,-0.69,-0.45,-19.34,-20.37,328.38,326.82,0.0,0.0,-12.0,167.0,167.0,0.157198,-2.925915,0.07227935,-0.1572517,0.01268245,-9.92765,0
78363642.0,-0.69,-0.45,-19.34,-20.37,328.38,326.82,0.0,0.0,-12.0,167.0,167.0,1.50543,1.2369,0.07949608,-0.1575315,-0.00469272,-9.889818,0
78413622.0,-0.725,0.355,-19.58,-19.07,328.36,326.73,0.0,0.0,-13.5,168.5,168.5,-2.269114,-1.188946,0.09921435,-0.1499465,-0.06918719,-9.963654,0
78463602.0,-0.76,1.16,-19.82,-17.77,328.34,326.64,0.0,0.0,-15.0,170.0,170.0,2.170929,-1.538429,0.1299268,-0.1915765,0.02520164,-9.887302,0
78463602.0,-0.76,1.16,-19.82,-17.77,328.34,326.64,0.0,0.0,-15.0,170.0,170.0,-1.263777,1.409726,0.1513679,-0.1772577,-0.08651821,-10.01169,0
78513582.0,-0.815,0.72,-20.05,-19.575,328.33,326.575,0.0,0.0,-19.0,165.5,165.5,-0.05048305,-2.998924,0.1566329,-0.1656927,0.00190503,-9.957546,0
78563562.0,-0.87,0.28,-20.28,-21.38,328.32,326.51,0.0,0.0,-23.0,161.0,161.0,1.501562,1.334209,0.168987,-0.1967821,-0.03192525,-10.03177,0
78563562.0,-0.87,0.28,-20.28,-21.38,328.32,326.51,0.0,0.0,-23.0,161.0,161.0,-2.295547,-1.349412,0.1915739,-0.1742267,-0.00955304,-10.06802,0
78613542.0,-0.96,0.605,-20.55,-19.885,328.315,326.545,0.0,0.0,-23.5,164.5,164.5,2.421865,-1.190083,0.2185865,-0.2295758,0.02776821,-9.978071,0
78663522.0,-1.05,0.93,-20.82,-18.39,328.31,326.58,0.0,0.0,-24.0,168.0,168.0,-1.467315,1.382581,0.2320268,-0.2787698,-0.02731188,-10.09396,0
78663522.0,-1.05,0.93,-20.82,-18.39,328.31,326.58,0.0,0.0,-24.0,168.0,168.0,0.2204437,-2.91937,0.2361431,-0.2373541,-0.00921996,-10.06026,0
78713502.0,-1.115,0.55,-21.1,-20.37,328.305,326.62,0.0,0.0,-27.0,165.5,165.5,1.251844,1.692531,0.2328034,-0.3693401,-0.01379874,-10.04178,0
78763482.0,-1.18,0.17,-21.38,-22.35,328.3,326.66,0.0,0.0,-30.0,163.0,163.0,-2.285067,-1.237214,0.2426968,-0.3161178,-0.05978888,-10.27692,0
78763482.0,-1.18,0.17,-21.38,-22.35,328.3,326.66,0.0,0.0,-30.0,163.0,163.0,2.402706,-0.8219057,0.2541907,-0.3995863,-0.0019756,-10.06059,0
78813462.0,-1.225,0.25,-21.275,-20.695,328.29,326.76,0.0,0.0,-31.0,167.5,167.5,-1.500499,1.818832,0.2549445,-0.4102287,-0.00976815,-10.26388,0
78863442.0,-1.27,0.33,-21.17,-19.04,328.28,326.86,0.0,0.0,-32.0,172.0,172.0,0.154857,-2.559889,0.2466305,-0.3823131,-0.01955167,-10.0973,0
78863442.0,-1.27,0.33,-21.17,-19.04,328.28,326.86,0.0,0.0,-32.0,172.0,172.0,1.348505,1.972267,0.2291013,-0.5224411,-0.03695672,-10.1575,0
78913422.0,-1.25,-0.12,-20.38,-20.165,328.255,326.98,0.0,0.0,-30.0,170.0,170.0,-2.287928,-0.933942,0.2265567,-0.5016371,-0.01224842,-10.28476,0
78963402.0,-1.23,-0.57,-19.59,-21.29,328.23,327.1,0.0,0.0,-28.0,168.0,168.0,2.388631,-0.7814078,0.2274568,-0.6078057,-0.01321705,-10.05933,0
78963402.0,-1.23,-0.57,-19.59,-21.29,328.23,327.1,0.0,0.0,-28.0,168.0,168.0,-1.420468,1.947127,0.2148177,-0.6369894,-0.03608273,-10.25628,0
79013382.0,-1.165,-0.43,-18.385,-18.495,328.195,327.2,0.0,0.0,-18.5,172.5,172.5,0.08055517,-2.555312,0.194411,-0.5987974,0.01833775,-10.02785,0
79063362.0,-1.1,-0.29,-17.18,-15.7,328.16,327.3,0.0,0.0,-9.0,177.0,177.0,1.427122,1.892229,0.1701493,-0.7707052,-0.03008667,-10.11619,0
79063362.0,-1.1,-0.29,-17.18,-15.7,328.16,327.3,0.0,0.0,-9.0,177.0,177.0,-2.296393,-0.7774924,0.1594484,-0.6804561,-0.02337757,-10.1682,0
79113342.0,-1.02,-0.6,-15.84,-16.03,328.13,327.43,0.0,0.0,1.5,174.0,174.0,2.183231,-1.124005,0.1539845,-0.7128177,0.03974606,-9.981902,0
79163322.0,-0.94,-0.91,-14.5,-16.36,328.1,327.56,0.0,0.0,12.0,171.0,171.0,-1.150087,2.084264,0.1406994,-0.8035462,-0.00679191,-10.17462,0
79163322.0,-0.94,-0.91,-14.5,-16.36,328.1,327.56,0.0,0.0,12.0,171.0,171.0,-0.3991491,-2.512266,0.1136758,-0.8186461,-0.02911955,-10.03361,0
79213302.0,-0.855,-0.55,-13.095,-13.38,328.075,327.63,0.0,0.0,26.5,174.0,174.0,1.812139,1.508107,0.09175858,-0.8654427,-0.02296419,-10.02708,0
79263282.0,-0.77,-0.19,-11.69,-10.4,328.05,327.7,0.0,0.0,41.0,177.0,177.0,-2.421517,-0.1528333,0.08386451,-0.9388337,0.02261395,-10.16894,0
79263282.0,-0.77,-0.19,-11.69,-10.4,328.05,327.7,0.0,0.0,41.0,177.0,177.0,1.932086,-1.513957,0.07831205,-0.9489143,0.02674652,-9.963352,0
79313678.5,-0.715,-0.48,-10.205,-10.555,328.03,327.795,0.0,0.0,54.0,173.0,173.0,-0.6491836,2.346146,0.05779883,-1.058762,-0.02271186,-10.15128,0
79364075.0,-0.66,-0.77,-8.72,-10.71,328.01,327.89,0.0,0.0,67.0,169.0,169.0,-0.9331615,-2.347615,0.03746538,-1.036658,0.03501298,-9.938615,0
79364075.0,-0.66,-0.77,-8.72,-10.71,328.01,327.89,0.0,0.0,67.0,169.0,169.0,2.117318,1.078544,0.02439287,-1.053963,0.07167885,-10.01383,0
79414055.0,-0.62,-0.58,-7.18,-7.535,327.995,327.915,0.0,0.0,82.5,172.0,172.0,-2.572211,0.4149813,0.02185355,-1.148167,-0.02727887,-10.13378,0
79464035.0,-0.58,-0.39,-5.64,-4.36,327.98,327.94,0.0,0.0,98.0,175.0,175.0,1.769411,-1.531929,0.0163653,-1.155309,0.02340341,-9.929451,0
79464035.0,-0.58,-0.39,-5.64,-4.36,327.98,327.94,0.0,0.0,98.0,175.0,175.0,-0.6056656,2.757704,0.00408623,-1.293446,-0.01742922,-10.01795,0
79514015.0,-0.495,-0.48,-4.265,-4.51,327.965,327.98,0.0,0.0,111.5,172.0,172.0,-0.8212611,-1.990834,-0.0162963,-1.232663,0.03132828,-9.872787,0
79563995.0,-0.41,-0.57,-2.89,-4.66,327.95,328.02,0.0,0.0,125.0,169.0,169.0,2.028742,1.835008,-0.02035698,-1.357517,0.00828416,-9.920609,0
79563995.0,-0.41,-0.57,-2.89,-4.66,327.95,328.02,0.0,0.0,125.0,169.0,169.0,-2.470535,0.3559154,-0.01642084,-1.306292,-0.02646911,-9.784321,0
79613975.0,-0.345,-0.26,-2.025,-2.04,327.945,328.005,0.0,0.0,138.0,171.0,171.0,2.031219,-0.8994282,-0.01354479,-1.376673,-0.03977049,-9.785511,0
79663955.0,-0.28,0.05,-1.16,0.58,327.94,327.99,0.0,0.0,151.0,173.0,173.0,-0.9390874,2.777533,-0.02039674,-1.483224,-0.02493975,-9.743247,0
79663955.0,-0.28,0.05,-1.16,0.58,327.94,327.99,0.0,0.0,151.0,173.0,173.0,-0.4887804,-1.873086,-0.02937623,-1.443512,-0.0231923,-9.664285,0
79713935.0,-0.25,-0.025,-0.655,-0.445,327.935,327.97,0.0,0.0,157.0,168.5,168.5,1.717376,2.157016,-0.03668223,-1.505486,-0.01186961,-9.734923,0
79763915.0,-0.22,-0.1,-0.15,-1.47,327.93,327.95,0.0,0.0,163.0,164.0,164.0,-2.357094,0.08684684,-0.02662081,-1.482823,-0.06592976,-9.630594,0
79763915.0,-0.22,-0.1,-0.15,-1.47,327.93,327.95,0.0,0.0,163.0,164.0,164.0,2.08339,-0.5507649,-0.01689938,-1.521137,-0.00346813,-9.709319,0
79813895.0,-0.23,0.07,0.185,0.415,327.93,327.905,0.0,0.0,167.5,167.0,167.0,-1.037819,2.635445,-0.01579571,-1.574065,-0.01698747,-9.605708,0
